[
  {
    "id": 1,
    "name": "جامع الملك خالد",
    "latitude": 24.7136,
    "longitude": 46.6753,
    "address": "الرياض، المملكة العربية السعودية"
  },
  {
    "id": 2,
    "name": "جامع الراجحي",
    "latitude": 24.6877,
    "longitude": 46.7562,
    "address": "الرياض، المملكة العربية السعودية"
  },
  {
    "id": 3,
    "name": "جامع القبلتين",
    "latitude": 24.4838,
    "longitude": 39.6031,
    "address": "المدينة المنورة، المملكة العربية السعودية"
  },
  {
    "id": 4,
    "name": "جامع قباء",
    "latitude": 24.4392,
    "longitude": 39.6174,
    "address": "المدينة المنورة، المملكة العربية السعودية"
  },
  {
    "id": 5,
    "name": "جامع نمرة",
    "latitude": 21.3556,
    "longitude": 39.9849,
    "address": "عرفات، مكة المكرمة، المملكة العربية السعودية"
  }
]
